// [
//    {
//       "MEMBER": 5,
//       "PRICE": 84000,
//       "PLACE": "약초마을",
//       "ADDRESS": "서울 동작구 노량진로 26 1층 102호",
//       "LATITUDE": 37.50530974,
//       "LONGITUDE": 126.9129035
//    },
//    {
//       "MEMBER": 6,
//       "PRICE": 108500,
//       "PLACE": "희래등",
//       "ADDRESS": "서울 동작구 등용로 123",
//       "LATITUDE": 37.51202109,
//       "LONGITUDE": 126.9317282
//    },
//    {
//       "MEMBER": 4,
//       "PRICE": 51500,
//       "PLACE": "귀일교자",
//       "ADDRESS": "서울 동작구 노량진로 166",
//       "LATITUDE": 37.51178245,
//       "LONGITUDE": 126.9319489
//    },
//    {
//       "MEMBER": 5,
//       "PRICE": 60000,
//       "PLACE": "서울가든",
//       "ADDRESS": "서울 동작구 노량진로6길 6-5",
//       "LATITUDE": 37.51282975,
//       "LONGITUDE": 126.9357484
//    },
//    {
//       "MEMBER": 5,
//       "PRICE": 60000,
//       "PLACE": "순천집",
//       "ADDRESS": "서울 동작구 노량진로 80 큐브스테이트 2층",
//       "LATITUDE": 37.51286519,
//       "LONGITUDE": 126.9346626
//    },
//    {
//       "MEMBER": 6,
//       "PRICE": 120000,
//       "PLACE": "순천집",
//       "ADDRESS": "서울 동작구 노량진로 80 큐브스테이트 3층",
//       "LATITUDE": 37.51286519,
//       "LONGITUDE": 126.9346626
//    },
//    {
//       "MEMBER": 6,
//       "PRICE": 410000,
//       "PLACE": "서울가든",
//       "ADDRESS": "서울 동작구 노량진로6길 6-5",
//       "LATITUDE": 37.51282975,
//       "LONGITUDE": 126.9357484
//    },
//    {
//       "MEMBER": 6,
//       "PRICE": 60000,
//       "PLACE": "순 칼국수",
//       "ADDRESS": "서울 동작구 등용로14길 66 1층",
//       "LATITUDE": 37.51224377,
//       "LONGITUDE": 126.9351551
//    },
//    {
//       "MEMBER": 6,
//       "PRICE": 150000,
//       "PLACE": "서울가든",
//       "ADDRESS": "서울 동작구 노량진로6길 6-5",
//       "LATITUDE": 37.51282975,
//       "LONGITUDE": 126.9357484
//    },
//    {
//       "MEMBER": 4,
//       "PRICE": 72000,
//       "PLACE": "국수사",
//       "ADDRESS": "서울 동작구 상도로30길 63-5 1층 101호",
//       "LATITUDE": 37.50474767,
//       "LONGITUDE": 126.9445091
//    },
//    {
//       "MEMBER": 4,
//       "PRICE": 99000,
//       "PLACE": "움프（Ｏｏｍｐｈ）",
//       "ADDRESS": "서울 동작구 상도로 341-2 1층",
//       "LATITUDE": 37.49804768,
//       "LONGITUDE": 126.9525262
//    },
//    {
//       "MEMBER": 4,
//       "PRICE": 120000,
//       "PLACE": "신방통통　낙지",
//       "ADDRESS": "서울 동작구 상도로26길 12",
//       "LATITUDE": 37.50387071,
//       "LONGITUDE": 126.9384817
//    },
//    {
//       "MEMBER": 4,
//       "PRICE": 20600,
//       "PLACE": "헤븐리가든",
//       "ADDRESS": "서울 동작구 상도로34길 11 1층",
//       "LATITUDE": 37.50416267,
//       "LONGITUDE": 126.9459232
//    },
//    {
//       "MEMBER": 4,
//       "PRICE": 92000,
//       "PLACE": "국수사",
//       "ADDRESS": "서울 동작구 상도로30길 63-5 1층 101호",
//       "LATITUDE": 37.50474767,
//       "LONGITUDE": 126.9445147
//    },
//    {
//       "MEMBER": 4,
//       "PRICE": 44000,
//       "PLACE": "두부마을",
//       "ADDRESS": "서울 동작구 상도로 65",
//       "LATITUDE": 37.49994531,
//       "LONGITUDE": 126.9278376
//    },
//    {
//       "MEMBER": 4,
//       "PRICE": 72000,
//       "PLACE": "지호한방삼계탕",
//       "ADDRESS": "서울 동작구 상도로26길 18 창조빌딩 2층",
//       "LATITUDE": 37.50380782,
//       "LONGITUDE": 126.9388267
//    },
//    {
//       "MEMBER": 15,
//       "PRICE": 200000,
//       "PLACE": "PHO HONG",
//       "ADDRESS": "서울 동작구 상도로30길 40 1층 103호",
//       "LATITUDE": 37.5043097,
//       "LONGITUDE": 126.9424624
//    },
//    {
//       "MEMBER": 4,
//       "PRICE": 37000,
//       "PLACE": "브레드제이",
//       "ADDRESS": "서울 동작구 상도로 192 1층",
//       "LATITUDE": 37.50493924,
//       "LONGITUDE": 126.9401123
//    },
//    {
//       "MEMBER": 4,
//       "PRICE": 69000,
//       "PLACE": "지호한방삼계탕",
//       "ADDRESS": "서울 동작구 상도로26길 18 창조빌딩 2층",
//       "LATITUDE": 37.50380782,
//       "LONGITUDE": 126.9388267
//    },
//    {
//       "MEMBER": 6,
//       "PRICE": 108000,
//       "PLACE": "국수사",
//       "ADDRESS": "서울 동작구 상도로30길 63-5 1층 101호",
//       "LATITUDE": 37.50474767,
//       "LONGITUDE": 126.9445147
//    },
//    {
//       "MEMBER": 4,
//       "PRICE": 56500,
//       "PLACE": "프랭크버거 상도역점",
//       "ADDRESS": "서울 동작구 만양로 6 상가동 101호",
//       "LATITUDE": 37.5049784,
//       "LONGITUDE": 126.9466153
//    },
//    {
//       "MEMBER": 5,
//       "PRICE": 90000,
//       "PLACE": "산골안",
//       "ADDRESS": "서울 관악구 봉천로 392 1층",
//       "LATITUDE": 37.48290671,
//       "LONGITUDE": 126.9433578
//    },
//    {
//       "MEMBER": 6,
//       "PRICE": 76000,
//       "PLACE": "신방통통　낙지",
//       "ADDRESS": "서울 동작구 상도로26길 12",
//       "LATITUDE": 37.50387071,
//       "LONGITUDE": 126.9384817
//    },
//    {
//       "MEMBER": 4,
//       "PRICE": 151000,
//       "PLACE": "두부마을",
//       "ADDRESS": "서울 동작구 상도로 65",
//       "LATITUDE": 37.49994531,
//       "LONGITUDE": 126.9278376
//    },
//    {
//       "MEMBER": 6,
//       "PRICE": 120000,
//       "PLACE": "대방회집",
//       "ADDRESS": "서울 동작구 여의대방로 134-1",
//       "LATITUDE": 37.49897218,
//       "LONGITUDE": 126.9207338
//    },
//    {
//       "MEMBER": 6,
//       "PRICE": 100000,
//       "PLACE": "신짱스시",
//       "ADDRESS": "서울 동작구 상도로30길 8 2층",
//       "LATITUDE": 37.50477768,
//       "LONGITUDE": 126.9413452
//    },
//    {
//       "MEMBER": 10,
//       "PRICE": 180000,
//       "PLACE": "석춘해물칼국수",
//       "ADDRESS": "서울 동작구 장승배기로10길 23 2층",
//       "LATITUDE": 37.50484928,
//       "LONGITUDE": 126.9403894
//    },
//    {
//       "MEMBER": 4,
//       "PRICE": 46000,
//       "PLACE": "신방통통　낙지",
//       "ADDRESS": "서울 동작구 상도로26길 12",
//       "LATITUDE": 37.50387071,
//       "LONGITUDE": 126.9384817
//    },
//    {
//       "MEMBER": 5,
//       "PRICE": 108000,
//       "PLACE": "상도　늘보리",
//       "ADDRESS": "서울 동작구 상도로26길 19",
//       "LATITUDE": 37.50415466,
//       "LONGITUDE": 126.9387388
//    },
//    {
//       "MEMBER": 6,
//       "PRICE": 99000,
//       "PLACE": "원할머니보쌈　이수역",
//       "ADDRESS": "서울 동작구 동작대로27나길 22 1층",
//       "LATITUDE": 37.48677501,
//       "LONGITUDE": 126.9805888
//    },
//    {
//       "MEMBER": 4,
//       "PRICE": 60000,
//       "PLACE": "석춘해물칼국수",
//       "ADDRESS": "서울 동작구 장승배기로10길 23 2층",
//       "LATITUDE": 37.50484928,
//       "LONGITUDE": 126.9403894
//    },
//    {
//       "MEMBER": 20,
//       "PRICE": 300000,
//       "PLACE": "명동찌개마을",
//       "ADDRESS": "서울 동작구 동작대로27길 6",
//       "LATITUDE": 37.487746,
//       "LONGITUDE": 126.9815185
//    },
//    {
//       "MEMBER": 10,
//       "PRICE": 87600,
//       "PLACE": "프랭크버거　상도역점",
//       "ADDRESS": "서울 동작구 만양로 6 상가동 101호",
//       "LATITUDE": 37.5049784,
//       "LONGITUDE": 126.9466153
//    },
//    {
//       "MEMBER": 6,
//       "PRICE": 50000,
//       "PLACE": "만리장성",
//       "ADDRESS": "서울 동작구 상도로15길 110",
//       "LATITUDE": 37.50449378,
//       "LONGITUDE": 126.9368215
//    },
//    {
//       "MEMBER": 10,
//       "PRICE": 300000,
//       "PLACE": "만리장성",
//       "ADDRESS": "서울 동작구 상도로15길 110",
//       "LATITUDE": 37.50449378,
//       "LONGITUDE": 126.9368215
//    },
//    {
//       "MEMBER": 17,
//       "PRICE": 100000,
//       "PLACE": "파리바게뜨（상도점）",
//       "ADDRESS": "울 동작구 만양로 12 은혜빌딩 103~105호",
//       "LATITUDE": 37.50574902,
//       "LONGITUDE": 126.9472029
//    },
//    {
//       "MEMBER": 17,
//       "PRICE": 200000,
//       "PLACE": "낙지한마리수제비상도",
//       "ADDRESS": "서울 동작구 상도로31길 19 브라운스톤상가 B207호",
//       "LATITUDE": 37.50556739,
//       "LONGITUDE": 26.94409
//    },
//    {
//       "MEMBER": 5,
//       "PRICE": 95000,
//       "PLACE": "차이싱",
//       "ADDRESS": "서울 동작구 장승배기로11가길 11 2층",
//       "LATITUDE": 37.50573389,
//       "LONGITUDE": 126.9391673
//    },
//    {
//       "MEMBER": 18,
//       "PRICE": 312000,
//       "PLACE": "홍루이젠 대방점",
//       "ADDRESS": "서울 동작구 대방동23길 44",
//       "LATITUDE": 37.50415217,
//       "LONGITUDE": 126.9229393
//    },
//    {
//       "MEMBER": 20,
//       "PRICE": 325000,
//       "PLACE": "홍루이젠 대방점",
//       "ADDRESS": "서울 동작구 대방동23길 44",
//       "LATITUDE": 37.50415217,
//       "LONGITUDE": 126.9229393
//    },
//    {
//       "MEMBER": 4,
//       "PRICE": 36000,
//       "PLACE": "서울가든",
//       "ADDRESS": "서울 동작구 노량진로6길 6-5",
//       "LATITUDE": 37.51282975,
//       "LONGITUDE": 126.9357484
//    },
//    {
//       "MEMBER": 4,
//       "PRICE": 35000,
//       "PLACE": "어수지락",
//       "ADDRESS": "서울 동작구 등용로 122",
//       "LATITUDE": 37.51198309,
//       "LONGITUDE": 126.9322344
//    },
//    {
//       "MEMBER": 3,
//       "PRICE": 26000,
//       "PLACE": "취복루",
//       "ADDRESS": "서울 동작구 노량진로 96",
//       "LATITUDE": 37.51305757,
//       "LONGITUDE": 126.9363336
//    },
//    {
//       "MEMBER": 2,
//       "PRICE": 14000,
//       "PLACE": "순 칼국수",
//       "ADDRESS": "서울 동작구 등용로14길 66 1층",
//       "LATITUDE": 37.51224377,
//       "LONGITUDE": 126.9351551
//    },
//    {
//       "MEMBER": 6,
//       "PRICE": 80000,
//       "PLACE": "서울가든",
//       "ADDRESS": "서울 동작구 노량진로6길 6-5",
//       "LATITUDE": 37.51282975,
//       "LONGITUDE": 126.9357484
//    },
//    {
//       "MEMBER": 6,
//       "PRICE": 68000,
//       "PLACE": "순천집",
//       "ADDRESS": "서울 동작구 노량진로 80 큐브스테이트 2층",
//       "LATITUDE": 37.51286519,
//       "LONGITUDE": 126.9346626
//    },
//    {
//       "MEMBER": 4,
//       "PRICE": 42000,
//       "PLACE": "취복루",
//       "ADDRESS": "서울 동작구 노량진로 96",
//       "LATITUDE": 37.51305757,
//       "LONGITUDE": 126.9363336
//    },
//    {
//       "MEMBER": 5,
//       "PRICE": 60000,
//       "PLACE": "궁중순대보쌈",
//       "ADDRESS": "서울 동작구 등용로14길 60",
//       "LATITUDE": 37.51224361,
//       "LONGITUDE": 126.9348724
//    },
//    {
//       "MEMBER": 5,
//       "PRICE": 120000,
//       "PLACE": "희래등",
//       "ADDRESS": "서울 동작구 등용로 123",
//       "LATITUDE": 37.51202109,
//       "LONGITUDE": 126.9317282
//    },
//    {
//       "MEMBER": 4,
//       "PRICE": 40000,
//       "PLACE": "고흥회수산",
//       "ADDRESS": "서울 동작구 등용로 124",
//       "LATITUDE": 37.51227134,
//       "LONGITUDE": 126.9321125
//    },
//    {
//       "MEMBER": 4,
//       "PRICE": 48500,
//       "PLACE": "돌쇠와석쇠",
//       "ADDRESS": "서울 동작구 솔밭로 110",
//       "LATITUDE": 37.48569351,
//       "LONGITUDE": 126.9687084
//    },
//    {
//       "MEMBER": 4,
//       "PRICE": 46000,
//       "PLACE": "차녕식당",
//       "ADDRESS": "서울 동작구 사당로16가길 87 1층",
//       "LATITUDE": 37.48467997,
//       "LONGITUDE": 126.9690763
//    },
//    {
//       "MEMBER": 5,
//       "PRICE": 64000,
//       "PLACE": "파파디파스타",
//       "ADDRESS": "서울 동작구 사당로 169 102호",
//       "LATITUDE": 37.48681509,
//       "LONGITUDE": 126.9680578
//    },
//    {
//       "MEMBER": 6,
//       "PRICE": 80000,
//       "PLACE": "돌쇠와석쇠",
//       "ADDRESS": "서울 동작구 솔밭로 110",
//       "LATITUDE": 37.48569351,
//       "LONGITUDE": 126.9687084
//    },
//    {
//       "MEMBER": 6,
//       "PRICE": 85000,
//       "PLACE": "원일이정육식당",
//       "ADDRESS": "서울 동작구 사당로2차길 78",
//       "LATITUDE": 37.48681509,
//       "LONGITUDE": 126.9680578
//    },
//    {
//       "MEMBER": 4,
//       "PRICE": 34000,
//       "PLACE": "국수가",
//       "ADDRESS": "서울 동작구 사당로16가길 18",
//       "LATITUDE": 37.48311305,
//       "LONGITUDE": 126.9724745
//    },
//    {
//       "MEMBER": 6,
//       "PRICE": 80000,
//       "PLACE": "명품청기와감자탕남성역점",
//       "ADDRESS": "서울 동작구 사당로8길 4",
//       "LATITUDE": 37.48496391,
//       "LONGITUDE": 126.9695398
//    },
//    {
//       "MEMBER": 4,
//       "PRICE": 51000,
//       "PLACE": "도담",
//       "ADDRESS": "서울 동작구 사당로16가길 90 1층",
//       "LATITUDE": 37.48485568,
//       "LONGITUDE": 126.9691384
//    },
//    {
//       "MEMBER": 2,
//       "PRICE": 39000,
//       "PLACE": "어촌",
//       "ADDRESS": "서울 동작구 상도로 122",
//       "LATITUDE": 37.50130711,
//       "LONGITUDE": 126.9338697
//    },
//    {
//       "MEMBER": 6,
//       "PRICE": 180000,
//       "PLACE": "수정싱싱회",
//       "ADDRESS": "서울 동작구 상도로12길 20",
//       "LATITUDE": 37.49919161,
//       "LONGITUDE": 126.9293028
//    },
//    {
//       "MEMBER": 6,
//       "PRICE": 96000,
//       "PLACE": "성림식당",
//       "ADDRESS": "서울 동작구 장승배기로 118-1 1층",
//       "LATITUDE": 37.50809059,
//       "LONGITUDE": 126.9402766
//    },
//    {
//       "MEMBER": 5,
//       "PRICE": 71000,
//       "PLACE": "맛의명가",
//       "ADDRESS": "서울 동작구 사당로16가길 106",
//       "LATITUDE": 37.48536907,
//       "LONGITUDE": 126.9684485
//    },
//    {
//       "MEMBER": 5,
//       "PRICE": 180000,
//       "PLACE": "성림식당",
//       "ADDRESS": "서울 동작구 장승배기로 118-1 1층",
//       "LATITUDE": 37.50809059,
//       "LONGITUDE": 126.9402766
//    },
//    {
//       "MEMBER": 3,
//       "PRICE": 42000,
//       "PLACE": "성림식당",
//       "ADDRESS": "서울 동작구 장승배기로 118-1 1층",
//       "LATITUDE": 37.50809059,
//       "LONGITUDE": 126.9402766
//    },
//    {
//       "MEMBER": 4,
//       "PRICE": 60000,
//       "PLACE": "남도미식(사당로16길 17)",
//       "ADDRESS": "서울 동작구 사당로16길 17 2층",
//       "LATITUDE": 37.482629,
//       "LONGITUDE": 126.9735036
//    },
//    {
//       "MEMBER": 4,
//       "PRICE": 75000,
//       "PLACE": "남도미식(사당로16길 17)",
//       "ADDRESS": "서울 동작구 사당로16길 17 2층",
//       "LATITUDE": 37.482629,
//       "LONGITUDE": 126.9735036
//    },
//    {
//       "MEMBER": 4,
//       "PRICE": 76000,
//       "PLACE": "남도미식(사당로16길 17)",
//       "ADDRESS": "서울 동작구 사당로16길 17 2층",
//       "LATITUDE": 37.482629,
//       "LONGITUDE": 126.9735036
//    },
//    {
//       "MEMBER": 4,
//       "PRICE": 44700,
//       "PLACE": "다채(상도로166)",
//       "ADDRESS": "서울 동작구 알마타길 6 하늘마루타운 1층",
//       "LATITUDE": 37.50964489,
//       "LONGITUDE": 126.9246444
//    },
//    {
//       "MEMBER": 4,
//       "PRICE": 75000,
//       "PLACE": "옥이네순두부(사당로 224-1)",
//       "ADDRESS": "서울 동작구 사당로 224-1",
//       "LATITUDE": 37.48362217,
//       "LONGITUDE": 126.9726807
//    },
//    {
//       "MEMBER": 28,
//       "PRICE": 228000,
//       "PLACE": "자금성(사당동 224-49)",
//       "ADDRESS": "서울 동작구 사당로16가길 97",
//       "LATITUDE": 37.48495918,
//       "LONGITUDE": 126.9686748
//    },
//    {
//       "MEMBER": 10,
//       "PRICE": 150000,
//       "PLACE": "김재운초밥사랑",
//       "ADDRESS": "서울 동작구 동작대로 69 1층",
//       "LATITUDE": 37.48268909,
//       "LONGITUDE": 126.9815509
//    },
//    {
//       "MEMBER": 16,
//       "PRICE": 210300,
//       "PLACE": "본도시락   사당점",
//       "ADDRESS": "서울 관악구 남부순환로 2044 동해빌딩 1층",
//       "LATITUDE": 37.47625038,
//       "LONGITUDE": 126.9759506
//    },
//    {
//       "MEMBER": 2,
//       "PRICE": 13200,
//       "PLACE": "본도시락   사당점",
//       "ADDRESS": "서울 관악구 남부순환로 2044 동해빌딩 1층",
//       "LATITUDE": 37.47625038,
//       "LONGITUDE": 126.9759506
//    },
//    {
//       "MEMBER": 5,
//       "PRICE": 51000,
//       "PLACE": "김재운초밥사랑",
//       "ADDRESS": "서울 동작구 동작대로 69 1층",
//       "LATITUDE": 37.48268909,
//       "LONGITUDE": 126.9815509
//    },
//    {
//       "MEMBER": 4,
//       "PRICE": 32000,
//       "PLACE": "궁중순대보쌈",
//       "ADDRESS": "서울 동작구 등용로14길 60",
//       "LATITUDE": 37.51224361,
//       "LONGITUDE": 126.9348724
//    },
//    {
//       "MEMBER": 4,
//       "PRICE": 52000,
//       "PLACE": "순천집",
//       "ADDRESS": "서울 동작구 노량진로 80 큐브스테이트 2층",
//       "LATITUDE": 37.51286519,
//       "LONGITUDE": 126.9346626
//    },
//    {
//       "MEMBER": 4,
//       "PRICE": 31000,
//       "PLACE": "고흥회수산",
//       "ADDRESS": "서울 동작구 등용로 124",
//       "LATITUDE": 37.51227134,
//       "LONGITUDE": 126.9321125
//    },
//    {
//       "MEMBER": 3,
//       "PRICE": 36000,
//       "PLACE": "순천집",
//       "ADDRESS": "서울 동작구 노량진로 80 큐브스테이트 2층",
//       "LATITUDE": 37.51286519,
//       "LONGITUDE": 126.9346626
//    },
//    {
//       "MEMBER": 4,
//       "PRICE": 53600,
//       "PLACE": "카츠진   노량진점",
//       "ADDRESS": "서울 동작구 노량진로8길 21 1층",
//       "LATITUDE": 37.51276715,
//       "LONGITUDE": 126.9366336
//    },
//    {
//       "MEMBER": 3,
//       "PRICE": 30000,
//       "PLACE": "서울가든",
//       "ADDRESS": "서울 동작구 노량진로6길 6-5",
//       "LATITUDE": 37.51282975,
//       "LONGITUDE": 126.9357484
//    },
//    {
//       "MEMBER": 3,
//       "PRICE": 28000,
//       "PLACE": "약초마을",
//       "ADDRESS": "서울 동작구 노량진로 26 1층 102호",
//       "LATITUDE": 37.50530974,
//       "LONGITUDE": 126.9129035
//    },
//    {
//       "MEMBER": 5,
//       "PRICE": 50000,
//       "PLACE": "홍도",
//       "ADDRESS": "서울 동작구 노량진로6길 6-3",
//       "LATITUDE": 37.51277343,
//       "LONGITUDE": 126.9357513
//    },
//    {
//       "MEMBER": 6,
//       "PRICE": 112000,
//       "PLACE": "성림식당",
//       "ADDRESS": "서울 동작구 장승배기로 118-1 1층",
//       "LATITUDE": 37.50808608,
//       "LONGITUDE": 126.9402822
//    },
//    {
//       "MEMBER": 3,
//       "PRICE": 35000,
//       "PLACE": "성림식당",
//       "ADDRESS": "서울 동작구 장승배기로 118-1 1층",
//       "LATITUDE": 37.50808608,
//       "LONGITUDE": 126.9402822
//    },
//    {
//       "MEMBER": 5,
//       "PRICE": 135000,
//       "PLACE": "장수촌",
//       "ADDRESS": "서울 동작구 사당로17가길 16",
//       "LATITUDE": 37.48400969,
//       "LONGITUDE": 126.9730367
//    },
//    {
//       "MEMBER": 4,
//       "PRICE": 40000,
//       "PLACE": "강촌민물매운탕",
//       "ADDRESS": "서울 동작구 여의대방로 126",
//       "LATITUDE": 37.49808471,
//       "LONGITUDE": 126.9207743
//    },
//    {
//       "MEMBER": 6,
//       "PRICE": 174000,
//       "PLACE": "수산식당",
//       "ADDRESS": "서울 동작구 노들로2길 9-8",
//       "LATITUDE": 37.51437259,
//       "LONGITUDE": 126.9397909
//    },
//    {
//       "MEMBER": 3,
//       "PRICE": 42000,
//       "PLACE": "성림식당",
//       "ADDRESS": "서울 동작구 장승배기로 118-1 1층",
//       "LATITUDE": 37.50808608,
//       "LONGITUDE": 126.9402822
//    },
//    {
//       "MEMBER": 5,
//       "PRICE": 72000,
//       "PLACE": "성림식당",
//       "ADDRESS": "서울 동작구 장승배기로 118-1 1층",
//       "LATITUDE": 37.50808608,
//       "LONGITUDE": 126.9402822
//    },
//    {
//       "MEMBER": 6,
//       "PRICE": 42000,
//       "PLACE": "성림식당",
//       "ADDRESS": "서울 동작구 장승배기로 118-1 1층",
//       "LATITUDE": 37.50808608,
//       "LONGITUDE": 126.9402822
//    },
//    {
//       "MEMBER": 5,
//       "PRICE": 35000,
//       "PLACE": "성림식당",
//       "ADDRESS": "서울 동작구 장승배기로 118-1 1층",
//       "LATITUDE": 37.50808608,
//       "LONGITUDE": 126.9402822
//    },
//    {
//       "MEMBER": 6,
//       "PRICE": 80000,
//       "PLACE": "원일이정육식당",
//       "ADDRESS": "서울 동작구 사당로2차길 78",
//       "LATITUDE": 37.48681509,
//       "LONGITUDE": 126.9680578
//    },
//    {
//       "MEMBER": 6,
//       "PRICE": 79000,
//       "PLACE": "명품청기와감자탕남성역점",
//       "ADDRESS": "서울 동작구 사당로8길 4",
//       "LATITUDE": 37.48496391,
//       "LONGITUDE": 126.9695398
//    },
//    {
//       "MEMBER": 20,
//       "PRICE": 101600,
//       "PLACE": "에그드랍   서울대입구",
//       "ADDRESS": "서울 관악구 관악로 168 1층",
//       "LATITUDE": 37.48021913,
//       "LONGITUDE": 126.952871
//    },
//    {
//       "MEMBER": 4,
//       "PRICE": 32000,
//       "PLACE": "담쟁이",
//       "ADDRESS": "서울 동작구 사당로 168",
//       "LATITUDE": 37.48676766,
//       "LONGITUDE": 126.9676027
//    },
//    {
//       "MEMBER": 5,
//       "PRICE": 45000,
//       "PLACE": "원일이정육식당",
//       "ADDRESS": "서울 동작구 사당로2차길 78",
//       "LATITUDE": 37.48681509,
//       "LONGITUDE": 126.9680578
//    },
//    {
//       "MEMBER": 4,
//       "PRICE": 37000,
//       "PLACE": "두꺼비부대찌개",
//       "ADDRESS": "서울 동작구 노량진로8길 58",
//       "LATITUDE": 37.51220048,
//       "LONGITUDE": 126.9384438
//    },
//    {
//       "MEMBER": 4,
//       "PRICE": 56000,
//       "PLACE": "명성식당",
//       "ADDRESS": "서울 동작구 장승배기로 157-2",
//       "LATITUDE": 37.51170341,
//       "LONGITUDE": 126.9398778
//    },
//    {
//       "MEMBER": 4,
//       "PRICE": 72000,
//       "PLACE": "서울가든",
//       "ADDRESS": "서울 동작구 노량진로6길 6-5",
//       "LATITUDE": 37.51282975,
//       "LONGITUDE": 126.9357484
//    },
//    {
//       "MEMBER": 6,
//       "PRICE": 129000,
//       "PLACE": "국풍",
//       "ADDRESS": "서울 동작구 등용로14길 82 2층",
//       "LATITUDE": 37.51263618,
//       "LONGITUDE": 126.9360342
//    },
//    {
//       "MEMBER": 5,
//       "PRICE": 45000,
//       "PLACE": "남월골추어탕",
//       "ADDRESS": "서울 동작구 노량진로8길 34",
//       "LATITUDE": 37.51263618,
//       "LONGITUDE": 126.9360342
//    },
//    {
//       "MEMBER": 6,
//       "PRICE": 50000,
//       "PLACE": "궁중순대보쌈",
//       "ADDRESS": "서울 동작구 등용로14길 60",
//       "LATITUDE": 37.51224361,
//       "LONGITUDE": 126.9348724
//    },
//    {
//       "MEMBER": 6,
//       "PRICE": 43000,
//       "PLACE": "금옥이네",
//       "ADDRESS": "서울 동작구 노량진로6길 18",
//       "LATITUDE": 37.51263618,
//       "LONGITUDE": 126.9360342
//    },
//    {
//       "MEMBER": 4,
//       "PRICE": 90000,
//       "PLACE": "명성식당",
//       "ADDRESS": "서울 동작구 장승배기로 157-2",
//       "LATITUDE": 37.51263618,
//       "LONGITUDE": 126.9360342
//    },
//    {
//       "MEMBER": 4,
//       "PRICE": 18600,
//       "PLACE": "헤븐리가든",
//       "ADDRESS": "서울 동작구 상도로34길 11 1층",
//       "LATITUDE": 37.50416267,
//       "LONGITUDE": 126.9459232
//    },
//    {
//       "MEMBER": 4,
//       "PRICE": 76000,
//       "PLACE": "두부마을",
//       "ADDRESS": "서울 동작구 상도로 65",
//       "LATITUDE": 37.51263618,
//       "LONGITUDE": 126.9360342
//    },
//    {
//       "MEMBER": 4,
//       "PRICE": 8800,
//       "PLACE": "헤븐리가든",
//       "ADDRESS": "서울 동작구 상도로34길 11 1층",
//       "LATITUDE": 37.50416267,
//       "LONGITUDE": 126.9459232
//    },
//    {
//       "MEMBER": 3,
//       "PRICE": 17500,
//       "PLACE": "헤븐리가든",
//       "ADDRESS": "서울 동작구 상도로34길 11 1층",
//       "LATITUDE": 37.50416267,
//       "LONGITUDE": 126.9459232
//    },
//    {
//       "MEMBER": 6,
//       "PRICE": 77000,
//       "PLACE": "두부마을",
//       "ADDRESS": "서울 동작구 상도로 65",
//       "LATITUDE": 37.51263618,
//       "LONGITUDE": 126.9360342
//    },
//    {
//       "MEMBER": 6,
//       "PRICE": 100000,
//       "PLACE": "브레드제이",
//       "ADDRESS": "서울 동작구 상도로 192 1층",
//       "LATITUDE": 37.50493924,
//       "LONGITUDE": 126.9401123
//    },
//    {
//       "MEMBER": 3,
//       "PRICE": 12600,
//       "PLACE": "헤븐리가든",
//       "ADDRESS": "서울 동작구 상도로34길 11 1층",
//       "LATITUDE": 37.50416267,
//       "LONGITUDE": 126.9459232
//    },
//    {
//       "MEMBER": 6,
//       "PRICE": 100000,
//       "PLACE": "차이싱",
//       "ADDRESS": "서울 동작구 장승배기로11가길 11 2층",
//       "LATITUDE": 37.50573389,
//       "LONGITUDE": 126.9391673
//    },
//    {
//       "MEMBER": 14,
//       "PRICE": 38000,
//       "PLACE": "원할머니보쌈흑석점",
//       "ADDRESS": "서울 동작구 현충로 100-1",
//       "LATITUDE": 37.50759136,
//       "LONGITUDE": 126.9647577
//    },
//    {
//       "MEMBER": 10,
//       "PRICE": 108000,
//       "PLACE": "황토정",
//       "ADDRESS": "서울 동작구 서달로13길 5-23",
//       "LATITUDE": 37.50759136,
//       "LONGITUDE": 126.9647577
//    },
//    {
//       "MEMBER": 14,
//       "PRICE": 99000,
//       "PLACE": "전주해물콩나물국밥",
//       "ADDRESS": "서울 동작구 흑석로9길 4 지하1층",
//       "LATITUDE": 37.50765741,
//       "LONGITUDE": 126.9599848
//    },
//    {
//       "MEMBER": 6,
//       "PRICE": 59500,
//       "PLACE": "피맥하우스 흑석점",
//       "ADDRESS": "서울 동작구 현충로 96",
//       "LATITUDE": 37.50790656,
//       "LONGITUDE": 126.9642514
//    },
//    {
//       "MEMBER": 6,
//       "PRICE": 49000,
//       "PLACE": "㈜안동장",
//       "ADDRESS": "서울 동작구 흑석로 105-1",
//       "LATITUDE": 37.50818034,
//       "LONGITUDE": 126.9610166
//    },
//    {
//       "MEMBER": 4,
//       "PRICE": 37500,
//       "PLACE": "백소정 중앙대점",
//       "ADDRESS": "서울 동작구 흑석로9길 2 2층",
//       "LATITUDE": 37.50818034,
//       "LONGITUDE": 126.9610166
//    },
//    {
//       "MEMBER": 4,
//       "PRICE": 44000,
//       "PLACE": "신방통통 낙지",
//       "ADDRESS": "서울 동작구 상도로26길 12",
//       "LATITUDE": 37.50387071,
//       "LONGITUDE": 126.9384817
//    },
//    {
//       "MEMBER": 4,
//       "PRICE": 79000,
//       "PLACE": "시래불고기 화풍정",
//       "ADDRESS": "서울 동작구 상도로 102",
//       "LATITUDE": 37.50818034,
//       "LONGITUDE": 126.9610166
//    },
//    {
//       "MEMBER": 3,
//       "PRICE": 79000,
//       "PLACE": "시래불고기 화풍정",
//       "ADDRESS": "서울 동작구 상도로 102",
//       "LATITUDE": 37.50818034,
//       "LONGITUDE": 126.9610166
//    },
//    {
//       "MEMBER": 5,
//       "PRICE": 135000,
//       "PLACE": "농실가",
//       "ADDRESS": "서울 동작구 상도로 142",
//       "LATITUDE": 37.50818034,
//       "LONGITUDE": 126.9610166
//    },
//    {
//       "MEMBER": 4,
//       "PRICE": 64000,
//       "PLACE": "복어마을",
//       "ADDRESS": "서울 동작구 상도로 103 1층",
//       "LATITUDE": 37.50818034,
//       "LONGITUDE": 126.9610166
//    },
//    {
//       "MEMBER": 4,
//       "PRICE": 34900,
//       "PLACE": "（주）써브웨이노량진",
//       "ADDRESS": "서울 동작구 노량진로 166",
//       "LATITUDE": 37.51301009,
//       "LONGITUDE": 126.9449526
//    },
//    {
//       "MEMBER": 6,
//       "PRICE": 105000,
//       "PLACE": "서울가든",
//       "ADDRESS": "서울 동작구 노량진로6길 6-5",
//       "LATITUDE": 37.51282975,
//       "LONGITUDE": 126.9357484
//    },
//    {
//       "MEMBER": 4,
//       "PRICE": 52500,
//       "PLACE": "오유미당노량진점",
//       "ADDRESS": "서울 동작구 만양로18길 14",
//       "LATITUDE": 37.5130101,
//       "LONGITUDE": 126.944978
//    },
//    {
//       "MEMBER": 4,
//       "PRICE": 75200,
//       "PLACE": "카츠진   노량진점",
//       "ADDRESS": "서울 동작구 노량진로8길 21 1층",
//       "LATITUDE": 37.51275589,
//       "LONGITUDE": 126.9366279
//    },
//    {
//       "MEMBER": 5,
//       "PRICE": 73400,
//       "PLACE": "네이버후드   버거락",
//       "ADDRESS": "서울 동작구 노량진로 157 1층",
//       "LATITUDE": 37.51393736,
//       "LONGITUDE": 126.9433316
//    },
//    {
//       "MEMBER": 5,
//       "PRICE": 120000,
//       "PLACE": "서울가든",
//       "ADDRESS": "서울 동작구 노량진로6길 6-5",
//       "LATITUDE": 37.51282975,
//       "LONGITUDE": 126.9357484
//    },
//    {
//       "MEMBER": 6,
//       "PRICE": 105000,
//       "PLACE": "밋투데이（ＭＥＡＴ",
//       "ADDRESS": "서울 동작구 장승배기로24길 6 1층",
//       "LATITUDE": 37.51393736,
//       "LONGITUDE": 126.9433316
//    },
//    {
//       "MEMBER": 4,
//       "PRICE": 60000,
//       "PLACE": "서울가든",
//       "ADDRESS": "서울 동작구 노량진로6길 6-5",
//       "LATITUDE": 37.51282975,
//       "LONGITUDE": 126.9357484
//    },
//    {
//       "MEMBER": 6,
//       "PRICE": 151000,
//       "PLACE": "수산식당",
//       "ADDRESS": "서울 동작구 노들로2길 9-8",
//       "LATITUDE": 37.51437259,
//       "LONGITUDE": 126.9397909
//    },
//    {
//       "MEMBER": 6,
//       "PRICE": 180000,
//       "PLACE": "수산식당",
//       "ADDRESS": "서울 동작구 노들로2길 9-8",
//       "LATITUDE": 37.51437259,
//       "LONGITUDE": 126.9397909
//    },
//    {
//       "MEMBER": 6,
//       "PRICE": 131000,
//       "PLACE": "거구회관",
//       "ADDRESS": "서울 동작구 등용로14길 76",
//       "LATITUDE": 37.51244002,
//       "LONGITUDE": 126.9356724
//    },
//    {
//       "MEMBER": 6,
//       "PRICE": 160000,
//       "PLACE": "수산식당",
//       "ADDRESS": "서울 동작구 노들로2길 9-8",
//       "LATITUDE": 37.51437259,
//       "LONGITUDE": 126.9397909
//    },
//    {
//       "MEMBER": 6,
//       "PRICE": 180000,
//       "PLACE": "수산식당",
//       "ADDRESS": "서울 동작구 노들로2길 9-8",
//       "LATITUDE": 37.51437259,
//       "LONGITUDE": 126.9397909
//    },
//    {
//       "MEMBER": 6,
//       "PRICE": 180000,
//       "PLACE": "수산식당",
//       "ADDRESS": "서울 동작구 노들로2길 9-8",
//       "LATITUDE": 37.51437259,
//       "LONGITUDE": 126.9397909
//    },
//    {
//       "MEMBER": 6,
//       "PRICE": 176000,
//       "PLACE": "수산식당",
//       "ADDRESS": "서울 동작구 노들로2길 9-8",
//       "LATITUDE": 37.51437259,
//       "LONGITUDE": 126.9397909
//    },
//    {
//       "MEMBER": 6,
//       "PRICE": 180000,
//       "PLACE": "수산식당",
//       "ADDRESS": "서울 동작구 노들로2길 9-8",
//       "LATITUDE": 37.51437259,
//       "LONGITUDE": 126.9397909
//    },
//    {
//       "MEMBER": 6,
//       "PRICE": 180000,
//       "PLACE": "수산식당",
//       "ADDRESS": "서울 동작구 노들로2길 9-8",
//       "LATITUDE": 37.51437259,
//       "LONGITUDE": 126.9397909
//    },
//    {
//       "MEMBER": 6,
//       "PRICE": 171800,
//       "PLACE": "벚꽃스시",
//       "ADDRESS": "서울 동작구 상도로30길 40 두산위브트레지움 B동 상가 1층 114호",
//       "LATITUDE": 37.5041749,
//       "LONGITUDE": 126.9431891
//    },
//    {
//       "MEMBER": 23,
//       "PRICE": 230000,
//       "PLACE": "원할머니보쌈족발   상도배달점",
//       "ADDRESS": "서울 동작구 상도로15길 104 1층",
//       "LATITUDE": 37.5041749,
//       "LONGITUDE": 126.9431891
//    },
//    {
//       "MEMBER": 4,
//       "PRICE": 58000,
//       "PLACE": "봉추찜닭   여의도주택건설회관점",
//       "ADDRESS": "서울 영등포구 국제금융로8길 25 주택건설회관빌딩 지하1층 B108호",
//       "LATITUDE": 37.5041749,
//       "LONGITUDE": 126.9431891
//    },
//    {
//       "MEMBER": 6,
//       "PRICE": 80700,
//       "PLACE": "본도시락   동작구청점",
//       "ADDRESS": "서울 동작구 장승배기로 143-1 1층",
//       "LATITUDE": 37.5103745,
//       "LONGITUDE": 126.9400146
//    },
//    {
//       "MEMBER": 6,
//       "PRICE": 73000,
//       "PLACE": "국풍",
//       "ADDRESS": "서울 동작구 등용로14길 82 2층",
//       "LATITUDE": 37.51263618,
//       "LONGITUDE": 126.9360342
//    },
//    {
//       "MEMBER": 6,
//       "PRICE": 133000,
//       "PLACE": "아빠맘명품스시",
//       "ADDRESS": "서울 동작구 장승배기로19길 29 1층",
//       "LATITUDE": 37.51261367,
//       "LONGITUDE": 126.9360455
//    },
//    {
//       "MEMBER": 6,
//       "PRICE": 98600,
//       "PLACE": "홍대돈부리",
//       "ADDRESS": "서울 관악구 청림6길 3",
//       "LATITUDE": 37.51261367,
//       "LONGITUDE": 126.9360455
//    },
//    {
//       "MEMBER": 6,
//       "PRICE": 167000,
//       "PLACE": "원조마포갈비",
//       "ADDRESS": "서울 동작구 노량진로8길 35 1층",
//       "LATITUDE": 37.51261367,
//       "LONGITUDE": 126.9360455
//    },
//    {
//       "MEMBER": 5,
//       "PRICE": 61000,
//       "PLACE": "천년약속",
//       "ADDRESS": "서울 동작구 노량진로 124 지층",
//       "LATITUDE": 37.51327102,
//       "LONGITUDE": 126.9396108
//    },
//    {
//       "MEMBER": 6,
//       "PRICE": 120000,
//       "PLACE": "청와대소금구이",
//       "ADDRESS": "서울 동작구 사당로 233",
//       "LATITUDE": 37.48354586,
//       "LONGITUDE": 126.9738679
//    },
//    {
//       "MEMBER": 3,
//       "PRICE": 22500,
//       "PLACE": "황비홍마라탕",
//       "ADDRESS": "서울 동작구 상도로30길 40 상도2차두산위브트레지움아파트 1층 108호",
//       "LATITUDE": 37.50448986,
//       "LONGITUDE": 126.9423774
//    },
//    {
//       "MEMBER": 5,
//       "PRICE": 83000,
//       "PLACE": "차이싱",
//       "ADDRESS": "서울 동작구 장승배기로11가길 11 2층",
//       "LATITUDE": 37.50573389,
//       "LONGITUDE": 126.9391673
//    },
//    {
//       "MEMBER": 3,
//       "PRICE": 30000,
//       "PLACE": "섬마을",
//       "ADDRESS": "서울 동작구 노량진로6길 17",
//       "LATITUDE": 37.50448986,
//       "LONGITUDE": 126.9423774
//    },
//    {
//       "MEMBER": 4,
//       "PRICE": 50000,
//       "PLACE": "봉평산골메밀촌",
//       "ADDRESS": "서울 영등포구 도림로61길 5",
//       "LATITUDE": 37.49752861,
//       "LONGITUDE": 126.9030119
//    },
//    {
//       "MEMBER": 5,
//       "PRICE": 120000,
//       "PLACE": "카츠진노량진점",
//       "ADDRESS": "서울 동작구 노량진로8길 21 1층",
//       "LATITUDE": 37.51276715,
//       "LONGITUDE": 126.9366336
//    },
//    {
//       "MEMBER": 5,
//       "PRICE": 75000,
//       "PLACE": "신짱스시",
//       "ADDRESS": "서울 동작구 상도로30길 8 2층",
//       "LATITUDE": 37.50477768,
//       "LONGITUDE": 126.9413452
//    },
//    {
//       "MEMBER": 3,
//       "PRICE": 73000,
//       "PLACE": "국풍",
//       "ADDRESS": "서울 동작구 등용로14길 82 2층",
//       "LATITUDE": 37.51263618,
//       "LONGITUDE": 126.9360342
//    },
//    {
//       "MEMBER": 12,
//       "PRICE": 143000,
//       "PLACE": "남원골추어탕",
//       "ADDRESS": "서울 동작구 노량진로8길 34",
//       "LATITUDE": 37.51247238,
//       "LONGITUDE": 126.9371965
//    },
//    {
//       "MEMBER": 20,
//       "PRICE": 115000,
//       "PLACE": "얌샘노량진점",
//       "ADDRESS": "서울 동작구 노량진로 110",
//       "LATITUDE": 37.51319147,
//       "LONGITUDE": 126.9382196
//    },
//    {
//       "MEMBER": 6,
//       "PRICE": 162000,
//       "PLACE": "원조마포갈비",
//       "ADDRESS": "서울 동작구 노량진로8길 35 1층",
//       "LATITUDE": 37.51261367,
//       "LONGITUDE": 126.9360455
//    },
//    {
//       "MEMBER": 6,
//       "PRICE": 69100,
//       "PLACE": "SaigonLee(사이공리)",
//       "ADDRESS": "서울 동작구 장승배기로 151-1 1층",
//       "LATITUDE": 37.51319147,
//       "LONGITUDE": 126.9382196
//    },
//    {
//       "MEMBER": 5,
//       "PRICE": 52900,
//       "PLACE": "딘딘향 노량진역점",
//       "ADDRESS": "서울 동작구 노량진로 144 1층",
//       "LATITUDE": 37.51343433,
//       "LONGITUDE": 126.941853
//    },
//    {
//       "MEMBER": 6,
//       "PRICE": 176000,
//       "PLACE": "원조마포갈비",
//       "ADDRESS": "서울 동작구 노량진로8길 35 1층",
//       "LATITUDE": 37.51261367,
//       "LONGITUDE": 126.9360455
//    }
// ]